stop_id,stop_code,stop_name,stop_desc,stop_lat,stop_lon,zone_id,stop_url,location_type,parent_station
0701DCS,,Dagoretti Corner Stage,UD,-1.298409,36.75943,,,,
0701DCR,,Deliverance Church Riruta,UD,-1.292742,36.751647,,,,
0701KJI,,Kinyanjui,UD,-1.291616,36.747588,,,,
0711SGO,,Sugoini,D,-1.290401,36.745675,,,,
0711MLK,,Mlangosoko,D,-1.288554,36.743012,,,,
0701BPP,,BP,UD,-1.287695,36.741786,,,,
0701PBG,,Precious Blood Girls' School,UD,-1.284792,36.737882,,,,
0701REU,,KRep/Equity,UD,-1.284519,36.737751,,,,
0701NVI,,Naivasha/Naivasha Road Flat,UD,-1.282624,36.737052,,,,
0701SJC,,St.John College Riruta,UD,-1.281713,36.736867,,,,
0701NDW,,Ndwaru,UD,-1.279007,36.735903,,,,
0701RSF,,Riverside Flats,UD,-1.277609,36.735855,,,,
0701GDB,,Gachangi/Darajani/Baptist Church,UD,-1.273125,36.732513,,,,
0711GTD,,Gathondeki,D,-1.271824,36.729725,,,,
0701SMR,,Summer-Rock,UD,-1.2707,36.728392,,,,
0701LRI,,ILRI,UD,-1.26695,36.723189,,,,
0701THR,,Uthiru,UD,-1.264088,36.719912,,,,
0701WGT,,Kwa Mchanga/TOTAL,UD,-1.262886,36.71848,,,,
0701UTP,,Uthiru Pentecostal,UD,-1.261392,36.71691,,,,
0701WWU,,Waiyaki Way/Uthiru Junction,UD,-1.260951,36.716548,,,,
0801DEP,,Deliverance Church/Petrol Station,UD,-1.26086,36.71329,,,,
0801SHC,,Shell/Cooperation,UD,-1.26039,36.71069,,,,
0801GCC,,87/Gachecheni,UD,-1.25862,36.70304,,,,
0811ETT,,87/Total,D,-1.25788,36.70095,,,,
0801KGH,,Kinoo Girls High School,UD,-1.2564,36.69682,,,,
0811JMK,,Jacmil Supermarket/Kinoo Stage,D,-1.25533,36.69376,,,,
0801MUC,,Muthiga Academy,UD,-1.25218,36.68807,,,,
0801MUM,,Muthiga/KikopeyUD,UD,-1.24962,36.68444,,,,
0801DMN,,Dominion Church,UD,-1.24759,36.68156,,,,
0801RGN,,Regen Filling Station,UD,-1.24653,36.68024,,,,
0811RNG,,Rungiri,D,-1.24285,36.67702,,,,
0801KMP,,Kampala Way Filling Station,UD,-1.24038,36.67545,,,,
0701KIJ,,Kwa Ngwacii Junction,UD,-1.235343,36.668001,,,,
0701GTR,,Gitaru Junction,UD,-1.232439,36.669958,,,,
0701KNR,,Kwa Njeru/Gitaru/Pank View,UD,-1.230569,36.674916,,,,
0711NJG,,Kwa Njeru Stage,D,-1.230536,36.675502,,,,
0711MGU,,Magu,D,-1.230145,36.680691,,,,
0701RNR,,Matta,UD,-1.230007,36.682717,,,,
0711MUT,,Muthure,D,-1.229684,36.687599,,,,
0701ACI,,ACK St. Phillips,UD,-1.229171,36.691852,,,,
0711KNY,,Kanyariri,D,-1.227579,36.698624,,,,
0701ACC,,Acacia Junction/King'eero,UD,-1.224886,36.705526,,,,
0711PFE,,PEFA King'eero,D,-1.224241,36.706924,,,,
0701TTW,,TOTAL Wangige,UD,-1.22071,36.712074,,,,
0711WNG,,Wangige Stage,D,-1.219195,36.71239,,,,
0710WNG,,Wangige Stage,D,-1.219195,36.71239,,,,
0700KAK,,Kenya Assemblies of God King'eero,UD,-1.222091,36.710964,,,,
0700ACI,,Acacia Petrol Station Junction/King'eero,UD,-1.225118,36.705298,,,,
0710KNA,,King'eero Stage,D,-1.22554,36.704265,,,,
0700GBK,,Green Belt/Kanyariri,UD,-1.2278,36.698182,,,,
0710MTE,,Muthure,D,-1.229762,36.687326,,,,
0700MAA,,Matta,UD,-1.229908,36.685421,,,,
0710MAU,,Magu,D,-1.230283,36.680541,,,,
0700GRU,,Gitaru,UD,-1.231977,36.670458,,,,
0810KPL,,Kampapla,D,-1.240285,36.675546,,,,
0810RUG,,Rungiri,D,-1.242892,36.677207,,,,
0800REG,,Regen,UD,-1.247038,36.681033,,,,
0810MTG,,Muthiga,D,-1.249498,36.68443,,,,
0800MTG,,Muthiga,UD,-1.251837,36.687823,,,,
0800KIN,,Kinoo,UD,-1.255397,36.694309,,,,
0810KIN,,Kinoo,D,-1.255507,36.694726,,,,
0810EGT,,87,D,-1.257979,36.701583,,,,
0810WJM,,Wanjimi,UD,-1.258501,36.703092,,,,
0810COP,,Cooperation,D,-1.260283,36.710522,,,,
0810UTH,,Uthiru,D,-1.260483,36.717077,,,,
0800UTH,,Uthiru,UD,-1.260216,36.718422,,,,
0800NDJ,,Ndumbuini Junction,UD,-1.259125,36.722524,,,,
0700URB,,Uthiru Roundabout,UD,-1.26445,36.721303,,,,
0700SJK,,St.Joseph's Kabete,UD,-1.265614,36.721817,,,,
0700IRI,,ILRI,UD,-1.266884,36.72319,,,,
0700SMK,,Summer-Rock,UD,-1.270807,36.728575,,,,
0710GKI,,Gathondeki,D,-1.2717,36.729698,,,,
0700NDU,,Ndwaru,UD,-1.279189,36.735985,,,,
0700SJL,,St.John College,UD,-1.280979,36.736715,,,,
0700MUL,,Muslim,UD,-1.28199,36.737025,,,,
0700EUI,,KRep/Equity,UD,-1.283577,36.737352,,,,
0700PBG,,Precious Blood Girls' School,UD,-1.285904,36.73926,,,,
0710DCD,,Dagoretti CDF/APs' Camp,D,-1.286467,36.740158,,,,
0700BPS,,BP,UD,-1.287522,36.74159,,,,
0700MSK,,Mlangosoko,UD,-1.28866,36.743186,,,,
0710SIN,,Sugoini,D,-1.290394,36.745712,,,,
0710KYJ,,Kinyanjui,D,-1.291539,36.747569,,,,
0700DCT,,Deliverance Church Riruta,UD,-1.29266,36.751563,,,,
0700RIR,,Riara,UD,-1.295857,36.755917,,,,
0710KJS,,Kaberia Junction Stage,D,-1.29703,36.756553,,,,
0700TBK,,Tea Board/Dagoretti Corner,UD,-1.298052,36.757968,,,,
0700KDC,,Kenol Dagoretti Corner,UD,-1.29843,36.759874,,,,
