stop_id,stop_code ,stop_name,Description,stop_lat,stop_lon,zone_id,stop_url,location_type,parent_station,,,,,,,,,
0401LDR,,Ladhes road/OTC,ND,-1.28505,36.83242,,,,
0411CST,,City Stadium Stage,D,-1.29237,36.84373,,,,,,,,,,,,,
0411SMY,,Shauri Moyo,D,-1.29288,36.846,,,,,,,,,,,,,
0411MZW,,Maziwa,D,-1.2936,36.8492,,,,,,,,,,,,,
0401RKN,,Rikana,ND,-1.294013,36.851153,,,,,,,,,,,,,
0411CAR,,Church Army,D,-1.29454,36.85315,,,,,,,,,,,,,
0411PST,,Posta,D,-1.29528,36.85678,,,,,,,,,,,,,
0401UJR,,Uchumi Jogoo Road,ND,-1.29604,36.860503,,,,,,,,,,,,,
0411HMZ,,Hamza,D,-1.29698,36.87566,,,,,,,,,,,,,
0411TMH,,Tom mboya hall,D,-1.29661,36.87832,,,,,,,,,,,,,
0411NAI,,Umoja stage,D,-1.296393,36.886606,,,,
0401MYJ,,Manyanja,ND,-1.2949,36.88697,,,,
0411MYJ,,Manyanja,D,-1.2944,36.88798,,,,
0411TEN,,Tena,D,-1.293,36.88979,,,,
0411MCW,,Car wash,D,-1.29017,36.89347,,,,
0401MRR,,Manyanja rd round about,D,-1.28737,36.89712,,,,
0401MRR,,Manyanja rd round about,ND,-1.28621,36.89796,,,,
0411BEN,,Bee centre,D,-1.28332,36.90191,,,,
0401BEN,,Bee centre,N/D,-1.282691,36.90293,,,,
0401MBA,,Masimba,ND,-1.27812,36.90812,,,,
0401JUN,,Junction,ND,-1.27971,36.91058,,,,
0411JUN,,Junction,D,-1.28044,36.91191,,,,
0401POS,,Post,ND,-1.28107,36.91382,,,,
0401SWT,,Soweto,ND,-1.28144,36.91469,,,,
0411KOI,,Kioi,D,-1.27916,36.91541,,,,
0401NYD,,Nyando,N/D,-1.27741,36.91583,,,,
0401PMR,,Prime rose,N/D,-1.27641,36.91665,,,,
0411RST,,Rasta,D,-1.27547,36.91738,,,,
0401MRA,,Maria,N/D,-1.27431,36.91788,,,,
0401SBA,,Sabasaba,N/D,-1.27307,36.9182,,,,
0411KCF,,kwa chief,D,-1.27166,36.91888,,,,
0401GKC,,GOA kayole church,N/D,-1.27105,36.91933,,,,
0400DSL,,Diesel,N/D,-1.26988,36.92002,,,,
0401BSR,,Biason rd,ND,-1.27031,36.91987,,,,
0401KON,,Kona,ND,-1.26866,36.92058,,,,
0401NYR,,Nyora,ND,-1.2671,36.92238,,,,
0401MHN,,Mihang'o,ND,-1.26568,36.92302,,,,
0411MHN,,Mihang'o,D,-1.26512,36.92337,,,,
0401SWM,,sowematt,ND,-1.26378,36.92286,,,,
0401KNM,,Kona mbaya,ND,-1.26323,36.92144,,,,
0400KY1,,Kayole 1,ND,-1.26212,36.91966,,,,
0400SP1,,step 1,N/D,-1.26518,36.91656,,,,,,,,,,,,,
0400TSH,,Tushauriane,N/D,-1.26644,36.9161,,,,,,,,,,,,,
0410TSH,,Tushauriane,D,-1.26719,36.91544,,,,,,,,,,,,,
0400KNS,,Kanisani,N/D,-1.26924,36.91356,,,,,,,,,,,,,
0400PCE,,PCEA,N/D,-1.27068,36.91308,,,,,,,,,,,,,
0410PCE,,PCEA,D,-1.27141,36.91245,,,,,,,,,,,,,
0400RCK,,Rocks,N/D,-1.27296,36.9111,,,,,,,,,,,,,
0400KDO,,Kwa Do,N/D,-1.274628,36.910548,,,,,,,,,,,,,
0410KDO,,Kwa Do ,D,-1.27532,36.90987,,,,,,,,,,,,,
0400NYV,,Nyama villa,N/D,-1.2762,36.90886,,,,,,,,,,,,,
0400MSB,,Masimba,N/D,-1.278176,36.907989,,,,,,,,,,,,,
0410MSB,,Masimba,D,-1.27893,36.90723,,,,,,,,,,,,,
0400SOS,,Sosiani,N/D,-1.28138,36.90543,,,,,,,,,,,,,
0410BEN,,Bee centre,D,-1.28363,36.9017,,,,
0400MRR,,Manyanja rd round about,ND,-1.28672,36.89801,,,,
0410MRR,,Manyanja rd round about,D,-1.28772,36.89679,,,,
0400MCW,,manyanja rd car wash,ND,-1.28986,36.89401,,,,
0410MCW,,manyanja rd car wash,D,-1.29048,36.89322,,,,
0410TEN,,Tena,D,-1.29359,36.88918,,,,
0410MYJ,,Manyanja,D,-1.295,36.88708,,,,
0410DON,,Naivas/Doni,D,-1.296591,36.886749,,,,
0410DNR,,Doni roundabout,D,-1.29726,36.88532,,,,,,,,,,,,,
0410TMH,,Tom mboya hall,D,-1.29694,36.87756,,,,,,,,,,,,,
0410HMZ,,Hamza,D,-1.297333,36.87488,,,,,,,,,,,,,
0400TJR,,Total Jogoo Road,ND,-1.298008,36.869484,,,,,,,,,,,,,
0410MKD,,Makadara,D,-1.29657,36.86223,,,,,,,,,,,,,
0400UJR,,Uchumi Jogoo Road,ND,-1.29618,36.86031,,,,,,,,,,,,,
0410PST,,Posta,D,-1.29565,36.85747,,,,,,,,,,,,,
0410CAR,,Church Army,D,-1.29475,36.85326,,,,,,,,,,,,,
0400MKG,,Makongeni,ND,-1.29314,36.84594,,,,,,,,,,,,,
0400MZW,,Maziwa,ND,-1.29368,36.84869,,,,,,,,,,,,,
0410KLL,,Kaloleni,D,-1.293696,36.848653,,,,,,,,,,,,,
0410CST,,City Stadium Stage,D,-1.29239,36.84268,,,,,,,,,,,,,
0400NCC,,Nacico ,N/D,-1.28892,36.8398,,,,,,,,,,,,,
0400CTB,,Country bus,N/D,-1.28666,36.835242,,,,,,,,,,,,,
0400LDR,,Ladhes road/OTC,ND,-1.28505,36.83242,,,,
